,City,Latitude,Longitude,Temperature (F),Humidity (%),Cloudiness (%),Wind Speed (mph),Country,DateTime
0,baramati,18.15,74.58,72.53599999999997,33,0,1.93,IN,2020-03-03 19:47:59
1,hilo,19.73,-155.09,70.10600000000002,88,90,1.5,US,2020-03-03 19:45:49
2,avarua,-21.21,-159.78,84.46999999999997,83,7,1.5,CK,2020-03-03 19:48:00
3,kavaratti,10.57,72.64,84.46999999999997,66,20,2.1,IN,2020-03-03 19:48:00
4,oranjestad,12.52,-70.03,80.86999999999996,69,20,8.2,AW,2020-03-03 19:45:59
5,barrow,71.29,-156.79,-23.529999999999994,74,1,3.1,US,2020-03-03 19:48:01
6,chernyshevskiy,63.01,112.47,14.558000000000003,93,100,1.83,RU,2020-03-03 19:48:02
7,jamestown,42.1,-79.24,38.01199999999996,97,90,4.6,US,2020-03-03 19:48:02
8,esperance,-33.87,121.9,73.66999999999996,46,100,3.6,AU,2020-03-03 19:48:02
9,rikitea,-23.12,-134.97,79.01600000000002,80,100,7.72,PF,2020-03-03 19:48:03
10,ushuaia,-54.8,-68.3,53.86999999999996,62,75,9.8,AR,2020-03-03 19:45:03
11,vestmannaeyjar,63.44,-20.27,37.346000000000046,55,100,9.26,IS,2020-03-03 19:48:04
12,illoqqortoormiut,,,,,,,,
13,mahebourg,-20.41,57.7,78.99800000000002,94,20,1.34,MU,2020-03-03 19:48:05
14,mataura,-46.19,168.86,58.26199999999996,50,1,4.47,NZ,2020-03-03 19:48:05
15,omsukchan,62.53,155.8,2.3359999999999665,88,80,4.63,RU,2020-03-03 19:48:06
16,rabo de peixe,37.8,-25.58,64.66999999999996,93,40,8.2,PT,2020-03-03 19:48:06
17,shiyan,32.65,110.78,55.274000000000015,65,100,1.73,CN,2020-03-03 19:48:07
18,urengoy,65.97,78.37,24.458000000000006,95,100,6.22,RU,2020-03-03 19:48:07
19,sioux lookout,50.1,-91.92,22.208000000000006,92,90,4.1,CA,2020-03-03 19:45:51
20,tomra,62.58,6.93,35.94199999999999,56,100,4.1,NO,2020-03-03 19:48:08
21,thompson,55.74,-97.86,14.269999999999957,85,90,2.6,CA,2020-03-03 19:48:09
22,katsuura,35.13,140.3,50.233999999999995,93,75,4.6,JP,2020-03-03 19:48:09
23,hobart,-42.88,147.33,70.21400000000003,45,20,5.7,AU,2020-03-03 19:44:43
24,bambanglipuro,-7.95,110.28,86.18000000000004,64,84,3.07,ID,2020-03-03 19:48:10
25,vaini,-21.2,-175.2,84.46999999999997,74,75,4.6,TO,2020-03-03 19:48:11
26,busselton,-33.65,115.33,87.69200000000001,15,88,2.56,AU,2020-03-03 19:47:51
27,geraldton,-28.77,114.6,98.86999999999996,18,0,4.1,AU,2020-03-03 19:47:48
28,albany,42.6,-73.97,45.535999999999966,70,90,6.2,US,2020-03-03 19:48:01
29,florida,28.75,-82.5,67.47799999999997,93,1,2.48,US,2020-03-03 19:48:12
30,chuy,-33.7,-53.46,67.87400000000002,89,0,4.15,UY,2020-03-03 19:48:13
31,mar del plata,-38,-57.56,69.49399999999997,87,0,3.58,AR,2020-03-03 19:48:13
32,saint-philippe,-21.36,55.77,80.02400000000002,88,75,4.6,RE,2020-03-03 19:48:14
33,taolanaro,,,,,,,,
34,sao joao da barra,-21.64,-41.05,73.59800000000003,90,65,2.5,BR,2020-03-03 19:48:15
35,colares,38.8,-9.45,59.522000000000034,93,75,3.1,PT,2020-03-03 19:48:15
36,ribeira grande,38.52,-28.7,58.62200000000004,89,99,9.12,PT,2020-03-03 19:48:15
37,svetlogorsk,52.63,29.73,41.70199999999998,87,90,3.79,BY,2020-03-03 19:48:16
38,goma,-1.68,29.22,56.408,97,93,1.14,CD,2020-03-03 19:48:16
39,lagoa,39.05,-27.98,61.556000000000026,84,97,10.23,PT,2020-03-03 19:48:17
40,kamenskoye,,,,,,,,
41,nanortalik,60.14,-45.24,15.619999999999958,67,0,6.34,GL,2020-03-03 19:48:18
42,butaritari,3.07,172.79,82.81400000000004,78,100,6.98,KI,2020-03-03 19:48:18
43,mys shmidta,,,,,,,,
44,cape town,-33.93,18.42,64.184,88,0,7.7,ZA,2020-03-03 19:43:12
45,ciudad bolivar,8.12,-63.55,79.808,50,2,5.79,VE,2020-03-03 19:43:31
46,narsaq,60.92,-46.05,3.46999999999996,41,0,2.1,GL,2020-03-03 19:48:20
47,ancud,-41.87,-73.82,50.26999999999996,93,88,1.5,CL,2020-03-03 19:48:20
48,puerto ayora,-0.74,-90.35,79.26799999999999,100,73,0.45,EC,2020-03-03 19:48:21
49,san patricio,19.22,-104.7,74.37200000000004,82,0,7.96,MX,2020-03-03 19:48:21
50,paradwip,,,,,,,,
51,punta arenas,-53.15,-70.92,50.26999999999996,81,20,4.6,CL,2020-03-03 19:48:22
52,belushya guba,,,,,,,,
53,namatanai,-3.67,152.43,86.50399999999996,68,100,3.04,PG,2020-03-03 19:48:23
54,upernavik,72.79,-56.15,-18.471999999999987,55,100,1.06,GL,2020-03-03 19:48:24
55,pierre,44.37,-100.35,34.214000000000034,86,75,3.1,US,2020-03-03 19:44:39
56,christiansburg,37.13,-80.41,50.161999999999956,43,1,3.1,US,2020-03-03 19:46:34
57,port alfred,-33.59,26.89,64.27400000000002,96,0,4.92,ZA,2020-03-03 19:48:25
58,koyelga,54.65,60.9,20.408,79,68,4.31,RU,2020-03-03 19:48:25
59,scottsburgh,,,,,,,,
60,verkhnyaya inta,65.98,60.31,10.958000000000002,86,100,10.97,RU,2020-03-03 19:48:26
61,lolua,,,,,,,,
62,souillac,-20.52,57.52,78.99800000000002,94,20,1.34,MU,2020-03-03 19:48:27
63,olafsvik,64.89,-23.71,31.640000000000022,58,40,4.6,IS,2020-03-03 19:48:28
64,castro,-24.79,-50.01,54.57200000000004,99,11,1.53,BR,2020-03-03 19:48:28
65,east london,-33.02,27.91,68.26999999999995,94,0,4.1,ZA,2020-03-03 19:48:29
66,nantucket,41.28,-70.1,48.75800000000001,93,90,5.7,US,2020-03-03 19:43:57
67,luau,-10.71,22.22,63.37400000000001,97,90,1.37,AO,2020-03-03 19:48:29
68,bluff,-46.6,168.33,58.26199999999996,50,49,4.47,NZ,2020-03-03 19:48:30
69,mehamn,71.04,27.85,26.86999999999996,73,20,7.7,NO,2020-03-03 19:48:30
70,rognan,67.1,15.39,30.361999999999956,50,20,11.8,NO,2020-03-03 19:48:31
71,necochea,-38.55,-58.74,65.26400000000004,95,0,0.89,AR,2020-03-03 19:48:31
72,lamu,-2.27,40.9,82.63399999999999,82,67,4.19,KE,2020-03-03 19:48:32
73,hailey,43.52,-114.32,29.372000000000035,82,5,1.59,US,2020-03-03 19:48:32
74,saint-raymond,45.47,-73.61,34.71799999999998,99,90,5.1,CA,2020-03-03 19:48:33
75,inhambane,-23.86,35.38,73.66999999999996,78,20,2.1,MZ,2020-03-03 19:48:33
76,shimoda,34.67,138.95,51.09800000000003,81,75,6.2,JP,2020-03-03 19:48:34
77,lauchhammer,51.5,13.8,33.61999999999996,74,23,2.1,DE,2020-03-03 19:48:34
78,amderma,,,,,,,,
79,namibe,-15.2,12.15,74.10199999999998,78,0,6.84,AO,2020-03-03 19:48:35
80,sisimiut,66.94,-53.67,-10.804000000000002,43,0,2.88,GL,2020-03-03 19:48:36
81,provideniya,64.38,-173.3,10.669999999999959,72,69,3,RU,2020-03-03 19:48:36
82,butembo,0.15,29.28,61.88000000000004,92,87,1.68,CD,2020-03-03 19:48:36
83,talnakh,69.49,88.4,10.669999999999959,85,75,4,RU,2020-03-03 19:48:37
84,portland,45.52,-122.68,51.674000000000014,54,90,4.1,US,2020-03-03 19:47:08
85,paamiut,61.99,-49.67,1.3459999999999965,48,0,2.03,GL,2020-03-03 19:48:38
86,qaanaaq,77.48,-69.36,-14.098000000000027,96,100,0.31,GL,2020-03-03 19:48:38
87,poopo,-18.37,-66.97,52.141999999999996,62,99,3.49,BO,2020-03-03 19:48:39
88,elliot lake,46.38,-82.63,28.66999999999996,92,90,1.19,CA,2020-03-03 19:44:56
89,porangatu,-13.44,-49.15,72.15800000000002,97,12,0.63,BR,2020-03-03 19:48:39
90,coahuayana,18.73,-103.68,71.86999999999996,68,5,2.42,MX,2020-03-03 19:48:40
91,lebu,-37.62,-73.65,56.80399999999995,85,0,4.29,CL,2020-03-03 19:48:40
92,kapaa,22.08,-159.32,77.03599999999997,78,40,4.1,US,2020-03-03 19:48:31
93,afmadu,,,,,,,,
94,bredasdorp,-34.53,20.04,65.26400000000004,85,0,1.38,ZA,2020-03-03 19:48:42
95,hermanus,-34.42,19.23,67.38800000000005,70,0,2.24,ZA,2020-03-03 19:48:42
96,victoria,22.29,114.16,71.07799999999997,73,40,2.1,HK,2020-03-03 19:48:43
97,melo,-32.37,-54.18,63.55399999999995,92,0,3.41,UY,2020-03-03 19:48:43
98,whitehorse,60.72,-135.05,10.309999999999977,78,90,5.1,CA,2020-03-03 19:47:26
99,nouadhibou,20.93,-17.03,68.26999999999995,72,0,7.7,MR,2020-03-03 19:48:44
100,pampa,35.54,-100.96,48.182000000000016,58,1,2.1,US,2020-03-03 19:46:37
101,hukuntsi,-24,21.75,66.36199999999997,68,1,3.01,BW,2020-03-03 19:48:45
102,tuktoyaktuk,69.45,-133.04,-45.129999999999995,64,20,2.1,CA,2020-03-03 19:48:45
103,isangel,-19.55,169.27,86.26999999999995,74,75,1.5,VU,2020-03-03 19:48:46
104,salalah,17.02,54.09,71.86999999999996,78,0,1.5,OM,2020-03-03 19:48:46
105,mersing,2.43,103.84,86.26999999999995,79,40,3.1,MY,2020-03-03 19:48:47
106,cidreira,-30.18,-50.21,73.21999999999997,77,100,7.38,BR,2020-03-03 19:48:47
107,syzran,53.16,48.47,31.04600000000005,98,100,1.87,RU,2020-03-03 19:48:48
108,ahipara,-35.17,173.17,78.27799999999996,92,100,1.34,NZ,2020-03-03 19:48:48
109,manacapuru,-3.3,-60.62,82.66999999999996,83,37,1.5,BR,2020-03-03 19:47:37
110,tarko-sale,64.92,77.78,27.26600000000001,91,100,0.45,RU,2020-03-03 19:48:49
111,ambon,-3.7,128.18,93.46999999999997,59,40,2.6,ID,2020-03-03 19:48:50
112,arraial do cabo,-22.97,-42.03,75.39800000000002,88,74,3.2,BR,2020-03-03 19:48:50
113,atasu,48.68,71.64,8.599999999999998,61,24,0.92,KZ,2020-03-03 19:48:51
114,san carlos de bariloche,-41.15,-71.31,62.86999999999996,39,0,3.1,AR,2020-03-03 19:48:51
115,billings,45.78,-108.5,42.89000000000002,22,20,6.2,US,2020-03-03 19:45:41
116,lorengau,-2.02,147.27,86.108,70,93,6.03,PG,2020-03-03 19:48:52
117,eureka,40.8,-124.16,48.79399999999997,87,40,2.1,US,2020-03-03 19:48:52
118,airai,-8.93,125.41,80.00600000000003,69,75,2.37,TL,2020-03-03 19:48:53
119,alofi,-19.06,-169.92,80.86999999999996,88,5,1,NU,2020-03-03 19:48:53
120,ponta do sol,32.67,-17.1,58.49600000000005,82,75,2.1,PT,2020-03-03 19:48:54
121,tazovskiy,67.47,78.7,20.98399999999999,94,100,6.63,RU,2020-03-03 19:48:55
122,tabriz,38.08,46.29,32.26999999999996,72,0,3.1,IR,2020-03-03 19:44:40
123,samusu,,,,,,,,
124,kendari,-3.94,122.5,85.1,81,100,0.57,ID,2020-03-03 19:48:56
125,belaya gora,68.53,146.42,7.196000000000048,75,0,2.91,RU,2020-03-03 19:48:56
126,vallenar,-28.57,-70.76,58.406000000000034,84,0,0.9,CL,2020-03-03 19:48:57
127,jacareacanga,-6.22,-57.75,74.73200000000003,97,97,0.92,BR,2020-03-03 19:48:57
128,sitka,57.05,-135.33,34.06999999999996,86,90,8.2,US,2020-03-03 19:48:58
129,tasiilaq,65.61,-37.64,28.66999999999996,92,100,3.6,GL,2020-03-03 19:48:58
130,banmo,,,,,,,,
131,bethel,41.37,-73.41,49.02799999999996,93,90,3.6,US,2020-03-03 19:48:59
132,new norfolk,-42.78,147.06,69.99800000000002,45,20,5.7,AU,2020-03-03 19:45:25
133,ketchikan,55.34,-131.65,38.53399999999999,93,90,7.2,US,2020-03-03 19:44:43
134,phalombe,-15.81,35.65,58.567999999999984,95,48,2.95,MW,2020-03-03 19:49:00
135,pisco,-13.7,-76.22,72.53599999999997,78,100,4.1,PE,2020-03-03 19:49:01
136,alta floresta,-9.88,-56.09,71.74399999999997,96,96,1.18,BR,2020-03-03 19:49:01
137,asau,46.43,26.4,45.391999999999996,81,72,4.1,RO,2020-03-03 19:49:02
138,plettenberg bay,-34.05,23.37,71.54600000000005,64,0,1.03,ZA,2020-03-03 19:49:02
139,torbay,47.67,-52.73,36.17599999999999,100,90,8.2,CA,2020-03-03 19:49:03
140,am timan,11.03,20.28,74.20999999999998,18,0,2.13,TD,2020-03-03 19:49:03
141,lavrentiya,65.58,-171,7.340000000000021,73,100,3.5,RU,2020-03-03 19:49:03
142,baykit,61.67,96.37,7.411999999999953,94,100,1.09,RU,2020-03-03 19:49:04
143,ekpoma,6.74,6.14,78.20600000000003,87,99,1.21,NG,2020-03-03 19:49:04
144,nikolskoye,59.7,30.79,35.6,97,90,4,RU,2020-03-03 19:49:05
145,tawnat,,,,,,,,
146,ust-maya,60.42,134.53,2.930000000000039,92,100,1.93,RU,2020-03-03 19:49:06
147,tiksi,71.69,128.87,4.082000000000015,79,100,14.46,RU,2020-03-03 19:49:06
148,we,,,,,,,,
149,lucea,18.45,-78.17,77.66600000000001,83,20,1,JM,2020-03-03 19:49:07
150,ust-barguzin,53.45,108.98,13.585999999999967,76,82,0.35,RU,2020-03-03 19:49:08
151,codrington,-38.27,141.97,61.23200000000001,79,0,4.52,AU,2020-03-03 19:49:08
152,kavieng,-2.57,150.8,82.41799999999998,84,100,9.88,PG,2020-03-03 19:49:08
153,chokurdakh,70.63,147.92,-0.058000000000006935,79,0,3.74,RU,2020-03-03 19:49:09
154,gboko,7.32,9,80.36600000000001,74,100,3.29,NG,2020-03-03 19:49:09
155,flin flon,54.77,-101.86,10.561999999999955,93,29,2.03,CA,2020-03-03 19:49:10
156,kirchbichl,47.51,12.1,31.675999999999988,86,75,1,AT,2020-03-03 19:49:10
157,yulara,-25.24,130.99,79.06999999999996,29,0,3.6,AU,2020-03-03 19:49:11
158,lompoc,34.64,-120.46,53.906000000000034,76,1,4.28,US,2020-03-03 19:45:21
159,bardiyah,31.76,25.09,63.21199999999996,50,33,7.89,LY,2020-03-03 19:49:11
160,cody,44.53,-109.06,37.85,27,0,5.46,US,2020-03-03 19:44:25
161,elat,29.56,34.95,55.66999999999996,76,0,3.1,IL,2020-03-03 19:49:12
162,novobirilyussy,56.95,90.67,18.40999999999998,94,100,1.16,RU,2020-03-03 19:49:13
163,kununurra,-15.77,128.73,84.46999999999997,62,90,4.1,AU,2020-03-03 19:49:13
164,shingu,33.73,135.98,53.86999999999996,87,75,1.5,JP,2020-03-03 19:49:14
165,teluk nibung,3,99.82,81.76999999999995,78,100,2.05,ID,2020-03-03 19:49:14
166,marsa matruh,31.35,27.25,61.37599999999999,75,11,7.04,EG,2020-03-03 19:49:15
167,kaa-khem,51.68,94.73,12.866000000000007,86,100,1.31,RU,2020-03-03 19:49:15
168,warqla,,,,,,,,
169,crab hill,,,,,,,,
170,bilma,18.69,12.92,67.51400000000004,10,0,2.74,NE,2020-03-03 19:49:17
171,hambantota,6.12,81.12,79.06999999999996,94,40,1,LK,2020-03-03 19:49:17
172,norman wells,65.28,-126.83,-16.32999999999999,68,75,1.5,CA,2020-03-03 19:49:17
173,banting,2.82,101.5,91.00399999999996,59,20,1.5,MY,2020-03-03 19:49:18
174,sobolevo,54.43,31.9,36.158,91,29,3.34,RU,2020-03-03 19:49:18
175,maldonado,-34.67,-54.92,69.20600000000003,77,0,2.6,UY,2020-03-03 19:49:19
176,honiara,-9.43,159.95,89.86999999999996,62,40,2.1,SB,2020-03-03 19:44:32
177,labuhan,-6.88,112.21,86.39600000000004,72,11,2.9,ID,2020-03-03 19:49:20
178,luderitz,-26.65,15.16,66.46999999999997,93,0,2.6,NA,2020-03-03 19:49:20
179,hasaki,35.73,140.83,51.061999999999955,93,75,3.6,JP,2020-03-03 19:45:42
180,kuminskiy,58.67,66.57,32.99000000000002,93,100,4.5,RU,2020-03-03 19:49:21
181,steinbach,50.17,8.57,34.10600000000003,77,20,1.5,DE,2020-03-03 19:49:22
182,havelock,34.88,-76.9,60.92599999999999,82,20,3.6,US,2020-03-03 19:45:31
183,klaksvik,62.23,-6.59,37.66999999999996,74,0,5.7,FO,2020-03-03 19:49:23
184,saleaula,,,,,,,,
185,eyl,7.98,49.82,77.41400000000004,69,87,6.11,SO,2020-03-03 19:49:23
186,sorland,67.67,12.69,34.501999999999974,62,36,8.85,NO,2020-03-03 19:49:24
187,fairlie,55.76,-4.86,33.8,89,100,1.5,GB,2020-03-03 19:49:24
188,san ignacio,17.16,-89.07,78.476,65,0,3.1,BZ,2020-03-03 19:44:30
189,nhulunbuy,-12.23,136.77,89.86999999999996,66,75,7.7,AU,2020-03-03 19:49:25
190,bambous virieux,-20.34,57.76,79.592,94,20,0.98,MU,2020-03-03 19:49:26
191,barentsburg,,,,,,,,
192,severo-kurilsk,50.68,156.12,27.374000000000013,81,99,5.39,RU,2020-03-03 19:49:26
193,tiznit,29.58,-9.5,64.34600000000006,40,0,1.08,MA,2020-03-03 19:49:27
194,yellowknife,62.46,-114.35,-0.1839999999999904,84,90,3.1,CA,2020-03-03 19:48:56
195,diapaga,12.07,1.79,76.64000000000001,15,0,2.16,BF,2020-03-03 19:49:28
196,edd,13.93,41.69,74.33599999999997,87,3,1.15,ER,2020-03-03 19:49:28
197,atuona,-9.8,-139.03,81.96799999999999,74,0,5.72,PF,2020-03-03 19:49:29
198,saskylakh,71.92,114.08,6.206000000000028,91,100,2.81,RU,2020-03-03 19:49:29
199,kimbe,-5.55,150.14,88.17799999999997,67,100,3.12,PG,2020-03-03 19:49:30
200,doha,25.29,51.53,60.601999999999975,63,0,3.6,QA,2020-03-03 19:46:16
201,tautira,-17.73,-149.15,86.26999999999995,70,40,2.6,PF,2020-03-03 19:49:31
202,madoc,44.51,-77.47,35.24000000000002,97,100,3.13,CA,2020-03-03 19:49:31
203,raymore,38.8,-94.45,47.516000000000005,42,1,3.6,US,2020-03-03 19:49:31
204,batsfjord,70.63,29.72,12.091999999999995,88,0,3.97,NO,2020-03-03 19:49:32
205,nyagan,62.14,65.39,18.40999999999998,88,0,4.83,RU,2020-03-03 19:49:32
206,keti bandar,24.14,67.45,73.54399999999998,72,0,6.12,PK,2020-03-03 19:49:33
207,bowen,-20.02,148.23,91.61600000000001,62,40,3.1,AU,2020-03-03 19:49:33
208,presidencia roque saenz pena,-26.79,-60.44,73.25600000000003,44,0,1.7,AR,2020-03-03 19:49:34
209,yar-sale,66.83,70.83,11.911999999999953,95,77,5.22,RU,2020-03-03 19:49:34
210,palabuhanratu,,,,,,,,
211,huitzo,19.97,-102.07,58.26199999999996,69,5,0.45,MX,2020-03-03 19:49:35
212,karwar,14.8,74.13,77.50399999999996,57,100,3.29,IN,2020-03-03 19:49:36
213,stanilesti,46.62,28.17,42.08000000000004,100,0,3.6,RO,2020-03-03 19:49:36
214,tadine,-21.55,167.88,81.91400000000004,77,64,4.11,NC,2020-03-03 19:49:37
215,crotone,39.09,17.12,46.075999999999986,65,88,2,IT,2020-03-03 19:49:37
216,avera,33.19,-82.53,63.30199999999998,100,40,2.6,US,2020-03-03 19:49:37
217,alotau,,,,,,,,
218,marcona,,,,,,,,
219,antalaha,-14.9,50.28,81.10399999999996,77,19,5.78,MG,2020-03-03 19:49:39
220,ilulissat,69.22,-51.1,-14.529999999999994,42,0,1.5,GL,2020-03-03 19:46:12
221,cabo san lucas,22.89,-109.91,61.73599999999997,70,3,4.47,MX,2020-03-03 19:49:40
222,chara,56.91,118.26,1.832000000000015,74,100,1.63,RU,2020-03-03 19:49:40
223,sidoarjo,-7.45,112.72,86.84600000000006,68,75,2.15,ID,2020-03-03 19:49:41
224,northam,51.03,-4.22,39.72200000000004,93,99,1.79,GB,2020-03-03 19:49:41
225,san ramon de la nueva oran,-23.13,-64.33,73.75999999999999,91,13,1.25,AR,2020-03-03 19:49:42
226,half moon bay,37.46,-122.43,59.719999999999956,71,20,7.7,US,2020-03-03 19:49:15
227,sur,22.57,59.53,69.54800000000003,66,0,2.76,OM,2020-03-03 19:49:43
228,attawapiskat,,,,,,,,
229,mount isa,-20.73,139.5,79.06999999999996,100,75,5.7,AU,2020-03-03 19:49:44
230,kegayli,,,,,,,,
231,dunedin,-45.87,170.5,56.26400000000004,56,0,5.81,NZ,2020-03-03 19:45:03
232,voh,-20.97,164.7,82.058,69,0,3.31,NC,2020-03-03 19:49:45
233,cap-aux-meules,47.38,-61.86,34.06999999999996,96,90,1.5,CA,2020-03-03 19:49:45
234,emporia,38.4,-96.18,45.82400000000001,45,1,3.6,US,2020-03-03 19:47:55
235,santa cruz,-17.8,-63.17,77.26999999999995,78,40,1,BO,2020-03-03 19:48:42
236,nicolas bravo,18.45,-88.92,71.54600000000005,96,0,1.78,MX,2020-03-03 19:49:47
237,iqaluit,63.75,-68.51,5.269999999999957,84,90,2.6,CA,2020-03-03 19:46:47
238,bartica,6.4,-58.62,73.66999999999996,94,20,2.1,GY,2020-03-03 19:49:48
239,inirida,3.87,-67.92,77.684,85,18,1.2,CO,2020-03-03 19:49:48
240,kodiak,57.79,-152.41,16.069999999999958,66,90,5.1,US,2020-03-03 19:49:49
241,te anau,-45.42,167.72,49.748000000000026,53,0,1.32,NZ,2020-03-03 19:49:49
242,dikson,73.51,80.55,-10.354000000000006,99,91,5.07,RU,2020-03-03 19:49:49
243,korla,41.76,86.15,37.274000000000015,68,37,0.52,CN,2020-03-03 19:49:50
244,auki,-8.77,160.7,86.16199999999995,70,78,3.14,SB,2020-03-03 19:49:50
245,hamilton,39.18,-84.53,45.68000000000004,52,1,1.5,US,2020-03-03 19:45:36
246,adrar,20.5,-10.07,70.53800000000004,8,0,4.35,MR,2020-03-03 19:49:52
247,berlevag,70.86,29.09,26.86999999999996,73,20,7.7,NO,2020-03-03 19:49:52
248,xadani,,,,,,,,
249,sentyabrskiy,,,,,,,,
250,vila velha,-20.33,-40.29,79.142,94,75,1.5,BR,2020-03-03 19:49:53
251,bengkulu,-3.8,102.27,81.87799999999996,73,100,0.96,ID,2020-03-03 19:49:54
252,sistranda,63.73,8.83,34.15999999999998,69,94,9.3,NO,2020-03-03 19:49:54
253,hithadhoo,-0.6,73.08,83.03000000000004,76,43,4.97,MV,2020-03-03 19:49:55
254,olivenza,38.68,-7.1,53.83399999999999,93,40,0.45,ES,2020-03-03 19:49:55
255,herat,34.5,62,37.66999999999996,86,20,1,AF,2020-03-03 19:49:56
256,yumen,40.28,97.2,40.51400000000003,25,0,4.45,CN,2020-03-03 19:49:56
257,longyearbyen,78.22,15.64,5.269999999999957,84,90,2.6,SJ,2020-03-03 19:49:57
258,pangnirtung,66.15,-65.71,-0.8679999999999879,73,100,1.14,CA,2020-03-03 19:49:57
259,kenai,60.55,-151.26,13.027999999999963,55,75,2.6,US,2020-03-03 19:49:58
260,saint-augustin,51.23,-58.65,22.549999999999997,91,36,4.28,CA,2020-03-03 19:49:58
261,starobaltachevo,56,55.92,16.609999999999978,90,100,4.08,RU,2020-03-03 19:49:59
262,flinders,-34.58,150.86,71.042,100,90,2.6,AU,2020-03-03 19:49:59
263,honningsvag,70.98,25.97,26.86999999999996,73,20,7.7,NO,2020-03-03 19:50:00
264,faanui,-16.48,-151.75,83.31799999999998,77,79,4.27,PF,2020-03-03 19:50:00
265,maumere,-8.62,122.21,84.05600000000004,69,100,2.31,ID,2020-03-03 19:50:01
266,araouane,18.9,-3.53,73.11199999999997,7,0,4.64,ML,2020-03-03 19:50:01
267,hobyo,5.35,48.53,72.87799999999996,83,89,3.66,SO,2020-03-03 19:50:02
268,bairiki,1.33,172.98,86.26999999999995,70,40,4.1,KI,2020-03-03 19:50:02
269,georgetown,5.41,100.34,88.55600000000004,70,20,1,MY,2020-03-03 19:50:03
270,bonthe,7.53,-12.51,78.35,92,86,0.83,SL,2020-03-03 19:50:03
271,hualmay,-11.1,-77.61,72.01400000000004,77,100,2.14,PE,2020-03-03 19:50:03
272,butajira,8.12,38.37,63.64399999999998,60,1,2.16,ET,2020-03-03 19:50:04
273,tabiauea,,,,,,,,
274,wukari,7.85,9.78,84.14600000000004,54,88,3.61,NG,2020-03-03 19:50:05
275,santa gertrudis,19.73,-99.37,65.39000000000001,38,5,4.6,MX,2020-03-03 19:50:05
276,orange,33.7,-117.77,62.438000000000045,55,1,2.1,US,2020-03-03 19:39:48
277,cedar city,37.68,-113.06,38.96600000000001,60,1,3.1,US,2020-03-03 19:50:06
278,mopipi,-21.18,24.88,64.23800000000006,85,0,2.92,BW,2020-03-03 19:50:07
279,chiredzi,-21.05,31.67,62.45600000000003,94,0,1.42,ZW,2020-03-03 19:50:07
280,hvammstangi,,,,,,,,
281,sydney,-33.87,151.21,74.39000000000001,65,75,8.7,AU,2020-03-03 19:47:41
282,balikpapan,-1.27,116.83,81.37400000000002,78,100,3.72,ID,2020-03-03 19:45:20
283,olyka,50.72,25.81,47.785999999999966,88,100,0.68,UA,2020-03-03 19:50:09
284,cayenne,4.93,-52.33,80.86999999999996,74,75,4.1,GF,2020-03-03 19:50:10
285,deputatskiy,69.3,139.9,2.75,69,0,1.42,RU,2020-03-03 19:50:10
286,benton harbor,42.12,-86.45,38.48000000000004,69,1,4.1,US,2020-03-03 19:50:11
287,lazaro cardenas,17.96,-102.2,72.76999999999995,80,0,0.96,MX,2020-03-03 19:50:11
288,price,39.6,-110.81,33.92599999999999,48,1,3.1,US,2020-03-03 19:50:11
289,torrevieja,37.98,-0.68,60.8,76,37,2.6,ES,2020-03-03 19:50:12
290,umm kaddadah,13.6,26.69,67.15399999999995,10,0,3.82,SD,2020-03-03 19:50:13
291,camacha,33.08,-16.33,62.07799999999996,77,20,2.1,PT,2020-03-03 19:50:13
292,tarauaca,-8.16,-70.77,73.81400000000004,92,100,0.78,BR,2020-03-03 19:50:14
293,crateus,-5.18,-40.68,73.74199999999999,93,100,2.26,BR,2020-03-03 19:47:36
294,buin,-33.73,-70.75,64.66999999999996,72,0,4.6,CL,2020-03-03 19:50:14
295,vikersund,59.97,9.99,32.846000000000046,97,90,4.6,NO,2020-03-03 19:50:15
296,boksitogorsk,59.47,33.85,34.10600000000003,98,100,2.69,RU,2020-03-03 19:50:15
297,emerald,-23.53,148.17,87.69200000000001,55,90,7.7,AU,2020-03-03 19:50:16
298,moose factory,51.26,-80.61,19.66999999999996,85,90,5.1,CA,2020-03-03 19:50:16
299,tra vinh,9.93,106.35,86.19800000000004,59,77,5.71,VN,2020-03-03 19:50:17
300,mhango,-3.28,32.85,65.40800000000002,92,97,1.92,TZ,2020-03-03 19:50:17
301,urumqi,43.8,87.6,39.469999999999956,69,75,1,CN,2020-03-03 19:50:18
302,porlamar,10.96,-63.85,73.54399999999998,90,34,2.87,VE,2020-03-03 19:50:18
303,genhe,50.78,121.52,9.967999999999982,82,99,2.61,CN,2020-03-03 19:50:19
304,san juan,-31.54,-68.54,82.20199999999997,34,0,3.85,AR,2020-03-03 19:50:19
305,sarangani,5.4,125.46,82.92200000000004,73,18,10.81,PH,2020-03-03 19:50:20
306,minas,-34.38,-55.24,69.16999999999996,77,0,2.6,UY,2020-03-03 19:50:20
307,bataipora,-22.3,-53.27,66.01999999999995,89,0,0.67,BR,2020-03-03 19:50:21
308,halalo,,,,,,,,
309,bull savanna,17.89,-77.59,69.35,95,20,0.86,JM,2020-03-03 19:50:22
310,sosnovo-ozerskoye,52.52,111.54,10.45399999999995,75,90,7.06,RU,2020-03-03 19:50:22
311,tumannyy,,,,,,,,
312,touros,-5.2,-35.46,79.06999999999996,94,42,4.59,BR,2020-03-03 19:50:23
313,ulverstone,-41.15,146.17,66.99199999999999,65,100,5.36,AU,2020-03-03 19:50:24
314,poum,-20.23,164.02,82.11199999999997,70,0,2.53,NC,2020-03-03 19:50:24
315,road town,18.42,-64.62,76.58599999999997,73,1,2.6,VG,2020-03-03 19:50:25
316,bur gabo,,,,,,,,
317,aswan,24.09,32.91,61.08800000000005,29,0,3.02,EG,2020-03-03 19:50:26
318,aguimes,27.91,-15.45,64.61600000000001,72,0,7.2,ES,2020-03-03 19:50:26
319,port lincoln,-34.73,135.87,67.118,63,37,4.58,AU,2020-03-03 19:50:26
320,myitkyina,25.38,97.4,69.11600000000001,67,3,1.64,MM,2020-03-03 19:50:27
321,nome,64.5,-165.41,10.49000000000002,72,90,9.3,US,2020-03-03 19:45:31
322,marienburg,54.04,19.03,40.04600000000005,93,75,6.2,PL,2020-03-03 19:50:28
323,hihifo,,,,,,,,
324,oistins,13.07,-59.53,79.06999999999996,74,75,9.3,BB,2020-03-03 19:50:29
325,ramanuj ganj,23.8,83.7,74.53399999999999,49,0,1.51,IN,2020-03-03 19:50:30
326,ixtapa,20.7,-105.2,72.95,78,40,2.1,MX,2020-03-03 19:47:18
327,kousseri,12.08,15.03,73.66999999999996,18,38,2.1,CM,2020-03-03 19:50:06
328,buala,-8.14,159.59,85.69399999999997,75,100,0.8,SB,2020-03-03 19:50:31
329,turukhansk,65.82,87.98,15.998000000000022,93,100,6.37,RU,2020-03-03 19:50:31
330,tomatlan,19.93,-105.25,64.65199999999999,94,0,0.39,MX,2020-03-03 19:50:32
331,dubbo,-32.25,148.62,77.26999999999995,69,100,6.2,AU,2020-03-03 19:50:32
332,dharchula,29.85,80.53,40.24399999999997,44,0,1.21,IN,2020-03-03 19:50:33
333,san jose,37.34,-121.89,59.684,66,1,2.6,US,2020-03-03 19:50:33
334,fukuma,33.77,130.47,54.464000000000034,66,75,3.6,JP,2020-03-03 19:50:34
335,margate,51.38,1.39,36.42799999999996,86,33,1.5,GB,2020-03-03 19:50:34
336,hopfgarten,50.98,11.27,31.082000000000015,92,31,4.1,DE,2020-03-03 19:50:35
337,port blair,11.67,92.75,79.91600000000001,74,75,3.46,IN,2020-03-03 19:50:35
338,nizhneyansk,,,,,,,,
339,khovu-aksy,51.13,93.6,14.738000000000046,69,100,4.49,RU,2020-03-03 19:50:36
340,lakes entrance,-37.88,147.98,67.35199999999998,70,100,1.61,AU,2020-03-03 19:50:37
341,indiana,40,-86.25,40.964000000000034,64,1,3.1,US,2020-03-03 19:50:37
342,clyde river,70.47,-68.59,-16.32999999999999,82,1,2.1,CA,2020-03-03 19:50:38
343,macae,-22.37,-41.79,73.66999999999996,100,90,0.5,BR,2020-03-03 19:50:38
344,micheweni,-4.97,39.83,82.976,77,100,2.2,TZ,2020-03-03 19:50:39
345,marsabit,2.33,37.99,73.92200000000004,78,94,10.94,KE,2020-03-03 19:50:39
346,pevek,69.7,170.31,1.0759999999999863,78,0,2.64,RU,2020-03-03 19:50:40
347,stephenville,32.22,-98.2,59.05399999999995,67,90,3.6,US,2020-03-03 19:50:40
348,hammerfest,70.66,23.68,25.069999999999958,49,0,7.7,NO,2020-03-03 19:50:41
349,hami,42.8,93.45,47.030000000000044,22,55,0.37,CN,2020-03-03 19:50:41
350,tsihombe,,,,,,,,
351,buraydah,26.33,43.98,52.069999999999965,50,0,1,SA,2020-03-03 19:50:42
352,aklavik,68.22,-135.01,-27.12999999999999,67,20,1,CA,2020-03-03 19:50:42
353,villa vazquez,,,,,,,,
354,primo tapia,32.22,-116.92,59.32400000000001,77,1,2.6,MX,2020-03-03 19:50:43
355,constitucion,-35.33,-72.42,54.68000000000004,93,2,2.97,CL,2020-03-03 19:50:44
356,yuancheng,36.65,107.79,41.86400000000003,32,0,1.7,CN,2020-03-03 19:50:44
357,hofn,64.25,-15.21,38.48000000000004,61,57,10.32,IS,2020-03-03 19:50:45
358,qaqortoq,60.72,-46.03,3.46999999999996,41,0,2.1,GL,2020-03-03 19:50:45
359,qui nhon,13.77,109.23,77.35999999999999,77,100,1.46,VN,2020-03-03 19:50:46
360,carnarvon,-24.87,113.63,88.06999999999996,62,0,4.1,AU,2020-03-03 19:50:46
361,manta,-0.95,-80.73,79.06999999999996,83,40,1,EC,2020-03-03 19:50:47
362,port elizabeth,-33.92,25.57,66.46999999999997,93,0,2.6,ZA,2020-03-03 19:50:47
363,pemangkat,1.17,108.97,81.5,79,100,0.96,ID,2020-03-03 19:50:47
364,bud,39.45,-86.18,42.76400000000003,52,1,2.6,US,2020-03-03 19:50:48
365,manokwari,-0.87,134.08,80.22200000000004,87,100,2.57,ID,2020-03-03 19:50:48
366,bom jardim,-7.8,-35.59,76.71199999999996,85,100,1.36,BR,2020-03-03 19:46:35
367,hirado,33.36,129.55,53.185999999999964,93,75,8.2,JP,2020-03-03 19:50:49
368,tselinnoye,53.08,85.67,23.54000000000002,93,100,6.2,RU,2020-03-03 19:50:50
369,barra,-11.09,-43.14,76.40600000000003,80,37,2.61,BR,2020-03-03 19:50:50
370,hirara,24.8,125.28,76.35199999999998,69,75,1,JP,2020-03-03 19:50:51
371,santa maria,-29.68,-53.81,66.2,65,0,2.52,BR,2020-03-03 19:50:51
372,guerrero negro,27.98,-114.06,60.908,75,0,4.7,MX,2020-03-03 19:50:52
373,xudat,41.63,48.68,46.417999999999985,45,40,1.91,AZ,2020-03-03 19:50:52
374,grand river south east,,,,,,,,
375,najran,17.49,44.13,59.26999999999996,33,5,0.86,SA,2020-03-03 19:50:53
376,rassvet,46.83,40.75,46.65199999999997,69,98,2.57,RU,2020-03-03 19:50:53
377,coquimbo,-29.95,-71.34,61.069999999999965,87,90,0.5,CL,2020-03-03 19:50:54
378,laguna,38.42,-121.42,61.898000000000025,48,1,2.6,US,2020-03-03 19:49:40
379,camana,-16.62,-72.71,67.1,87,100,2.04,PE,2020-03-03 19:50:55
380,praya,14.92,-23.51,73.66999999999996,56,0,6.7,CV,2020-03-03 19:46:48
381,buluang,13.31,123.34,82.20199999999997,59,3,3.15,PH,2020-03-03 19:50:56
382,cooma,-36.23,149.13,59.26999999999996,100,90,6.2,AU,2020-03-03 19:50:56
383,viedma,-40.81,-63,79.84399999999997,38,0,6.59,AR,2020-03-03 19:46:25
384,ostrovnoy,68.05,39.51,16.93399999999999,94,99,6.26,RU,2020-03-03 19:50:57
385,praia da vitoria,38.73,-27.07,63.75199999999998,88,44,11.03,PT,2020-03-03 19:50:57
386,sao filipe,14.9,-24.5,73.20199999999997,69,0,7.27,CV,2020-03-03 19:50:58
387,borazjan,29.27,51.22,61.069999999999965,55,20,5.1,IR,2020-03-03 19:50:58
388,ko samui,9.54,99.94,86.26999999999995,70,20,4.6,TH,2020-03-03 19:46:56
389,qianan,44.99,124.06,23.288000000000046,75,31,5.87,CN,2020-03-03 19:50:59
390,cockburn town,21.46,-71.14,77.39600000000004,80,43,9.75,TC,2020-03-03 19:51:00
391,lata,40.16,-8.33,56.19199999999999,93,97,0.89,PT,2020-03-03 19:51:00
392,vezirkopru,41.14,35.45,32.26999999999996,59,0,0.5,TR,2020-03-03 19:51:01
393,leningradskiy,69.38,178.42,8.816000000000006,89,100,9.51,RU,2020-03-03 19:51:01
394,bokspits,,,,,,,,
395,sao gabriel da cachoeira,-0.13,-67.09,75.46999999999997,92,100,0.51,BR,2020-03-03 19:51:02
396,bubaque,11.28,-15.83,80.27599999999998,70,0,3.49,GW,2020-03-03 19:51:03
397,santa ana,33.75,-117.87,62.024000000000015,24,1,3.1,US,2020-03-03 19:50:57
398,kholodnyy,62.72,147.95,-0.940000000000019,91,40,4.29,RU,2020-03-03 19:51:04
399,lalibela,12.03,39.03,62.67200000000004,53,31,0.62,ET,2020-03-03 19:51:04
400,padang,-0.95,100.35,81.93200000000002,65,37,1.42,ID,2020-03-03 19:51:05
401,lubango,-14.92,13.49,56.89399999999998,39,0,0.86,AO,2020-03-03 19:51:05
402,semey,50.41,80.23,19.66999999999996,79,97,4,KZ,2020-03-03 19:49:57
403,toliary,,,,,,,,
404,zhanaozen,43.3,52.8,36.64399999999997,51,36,4.87,KZ,2020-03-03 19:51:06
405,longkou,37.65,120.33,35.83399999999999,42,8,5.68,CN,2020-03-03 19:51:07
406,taltal,-25.4,-70.48,59.88200000000002,85,9,0.84,CL,2020-03-03 19:51:07
407,dunmore east,52.15,-6.99,39.48800000000004,88,100,2.94,IE,2020-03-03 19:51:08
408,pilar,-9.6,-35.96,77.26999999999995,94,98,1,BR,2020-03-03 19:51:08
409,utiroa,,,,,,,,
410,zhemchuzhnyy,,,,,,,,
411,panzhihua,26.59,101.71,62.27599999999999,51,2,0.51,CN,2020-03-03 19:51:10
412,moron,-34.65,-58.62,76.36999999999996,73,0,3.6,AR,2020-03-03 19:51:10
413,vila franca do campo,37.72,-25.43,64.66999999999996,93,40,8.2,PT,2020-03-03 19:51:11
414,zolotinka,,,,,,,,
415,tayu,-6.54,111.05,86.93599999999998,66,75,3.09,ID,2020-03-03 19:51:12
416,grindavik,63.84,-22.43,27.932000000000016,92,75,3.6,IS,2020-03-03 19:51:12
417,hermiston,45.84,-119.29,51.78200000000002,43,1,2.1,US,2020-03-03 19:51:13
418,sandata,46.27,41.76,47.04800000000002,65,100,1.62,RU,2020-03-03 19:51:13
419,jinka,5.65,36.65,71.09600000000006,69,51,2.82,ET,2020-03-03 19:51:14
420,agirish,61.92,63.02,18.301999999999975,87,0,5.63,RU,2020-03-03 19:51:14
421,sapao,,,,,,,,
422,roald,62.58,6.13,36.28399999999999,56,100,4.1,NO,2020-03-03 19:51:15
423,shelburne,44.08,-80.2,33.70999999999998,86,20,1,CA,2020-03-03 19:51:16
424,maputo,-25.97,32.59,71.15,88,20,2.6,MZ,2020-03-03 19:51:16
425,binzhou,37.37,118.02,45.266000000000005,31,1,0.89,CN,2020-03-03 19:51:17
426,wajid,3.81,43.25,70.51999999999995,69,74,7.69,SO,2020-03-03 19:51:17
427,port macquarie,-31.43,152.92,79.68200000000002,69,90,7.2,AU,2020-03-03 19:51:18
428,batagay-alyta,67.8,130.41,-0.4719999999999871,83,92,2.86,RU,2020-03-03 19:51:18
429,bonavista,48.65,-53.11,33.961999999999954,98,100,5.42,CA,2020-03-03 19:51:19
430,kaitangata,-46.28,169.85,52.91600000000001,63,5,8.98,NZ,2020-03-03 19:49:25
431,fortuna,40.6,-124.16,48.88399999999999,93,90,4.1,US,2020-03-03 19:51:20
432,quesnel,53,-122.5,41.26999999999996,48,75,5.7,CA,2020-03-03 19:51:20
433,aska,19.61,84.67,82.34600000000006,36,0,0.52,IN,2020-03-03 19:51:21
434,bilibino,68.05,166.44,2.4439999999999706,70,0,0.34,RU,2020-03-03 19:51:21
435,felanitx,39.47,3.15,51.943999999999974,87,10,0.5,ES,2020-03-03 19:51:22
436,egvekinot,66.32,-179.17,7.7900000000000205,64,15,1.67,RU,2020-03-03 19:51:22
437,udachnyy,66.42,112.4,8.869999999999958,78,90,3,RU,2020-03-03 19:51:23
438,chapais,49.78,-74.85,25.069999999999958,73,90,3.1,CA,2020-03-03 19:51:23
439,antofagasta,-23.65,-70.4,66.46999999999997,77,40,4.6,CL,2020-03-03 19:51:24
440,nahrin,36.06,69.13,47.53399999999999,72,100,2.82,AF,2020-03-03 19:51:24
441,ambodifototra,,,,,,,,
442,lingao,19.91,109.69,74.55199999999998,79,100,4.9,CN,2020-03-03 19:51:25
443,guatire,10.48,-66.54,72.98599999999996,83,40,0.66,VE,2020-03-03 19:51:26
444,da nang,16.07,108.22,83.40800000000002,74,40,4.6,VN,2020-03-03 19:47:00
445,constantine,36.37,6.61,48.469999999999956,81,75,11.3,DZ,2020-03-03 19:51:27
446,unity,52.45,-109.17,24.277999999999963,85,0,1.34,CA,2020-03-03 19:51:27
447,himora,,,,,,,,
448,beringovskiy,63.05,179.32,8.491999999999994,64,0,3.93,RU,2020-03-03 19:51:28
449,sakakah,29.97,40.21,48.469999999999956,49,0,1.5,SA,2020-03-03 19:51:29
450,vikulovo,56.82,70.61,31.85600000000003,92,99,6.12,RU,2020-03-03 19:51:29
451,calabozo,8.92,-67.43,78.27799999999996,31,0,3.9,VE,2020-03-03 19:51:30
452,anadyr,64.75,177.48,8.599999999999998,71,0,10,RU,2020-03-03 19:51:31
453,kovdor,67.57,30.48,5.71999999999996,91,0,0.61,RU,2020-03-03 19:51:31
454,atar,20.52,-13.05,70.39399999999998,8,0,3.33,MR,2020-03-03 19:51:32
455,vytegra,61.01,36.45,27.374000000000013,78,99,4.27,RU,2020-03-03 19:51:32
456,kenora,49.82,-94.43,18.338000000000044,73,75,3.6,CA,2020-03-03 19:51:33
457,qax,41.42,46.92,39.469999999999956,86,40,2.1,AZ,2020-03-03 19:47:50
458,douentza,15,-2.95,68.39600000000004,10,0,2.12,ML,2020-03-03 19:51:34
459,mendi,-6.18,143.65,65.24600000000005,85,98,1.56,PG,2020-03-03 19:51:34
460,karpogory,64,44.45,6.638000000000044,96,0,1.49,RU,2020-03-03 19:51:35
461,lichuan,30.3,108.85,48.811999999999955,73,74,0.49,CN,2020-03-03 19:51:35
462,tura,25.52,90.22,79.484,35,18,2.9,IN,2020-03-03 19:51:36
463,jinxiang,22.86,115.7,70.26799999999999,84,100,2.26,CN,2020-03-03 19:51:36
464,pochutla,15.74,-96.47,79.826,78,5,6.64,MX,2020-03-03 19:51:37
465,belmonte,-15.86,-38.88,80.86999999999996,74,40,1,BR,2020-03-03 19:51:38
466,tual,-5.67,132.75,85.02799999999996,72,100,3.1,ID,2020-03-03 19:51:38
467,westport,41.14,-73.36,48.83000000000004,93,90,2.6,US,2020-03-03 19:46:43
468,erzin,36.96,36.2,48.95600000000003,100,0,1,TR,2020-03-03 19:51:39
469,xining,36.62,101.77,33.29600000000005,31,0,2.3,CN,2020-03-03 19:51:40
470,yeletskiy,,,,,,,,
471,wagar,16.15,36.2,64.04000000000002,72,0,3.31,SD,2020-03-03 19:51:41
472,kolokani,13.57,-8.03,73.56199999999995,7,0,5.04,ML,2020-03-03 19:51:41
473,takoradi,4.88,-1.76,78.25999999999999,93,100,1.43,GH,2020-03-03 19:51:42
474,pinawa,50.15,-95.88,17.185999999999964,95,98,2.9,CA,2020-03-03 19:51:42
475,chontalpa,17.7,-93.52,79.34000000000003,50,0,4.39,MX,2020-03-03 19:51:43
476,khasan,42.43,130.64,30.05600000000003,97,100,8.32,RU,2020-03-03 19:51:43
477,russell,32.35,-85.2,60.403999999999954,100,75,1.39,US,2020-03-03 19:51:43
478,fukue,32.69,128.84,50.26999999999996,87,75,6.2,JP,2020-03-03 19:51:44
479,kokkola,63.84,23.13,25.448000000000025,73,90,4.6,FI,2020-03-03 19:51:44
480,bealanana,-14.55,48.73,65.55199999999998,96,92,1.1,MG,2020-03-03 19:51:45
481,broome,42.25,-75.83,39.001999999999974,86,75,5.1,US,2020-03-03 19:51:45
482,muzambinho,-21.38,-46.53,61.46600000000001,97,32,0.6,BR,2020-03-03 19:51:46
483,fernie,49.5,-115.07,39.469999999999956,97,75,5.7,CA,2020-03-03 19:49:08
484,arlit,18.74,7.39,71.33000000000004,9,0,3.38,NE,2020-03-03 19:51:47
485,pearland,29.56,-95.29,69.90800000000002,100,90,1.5,US,2020-03-03 19:51:47
486,grand gaube,-20.01,57.66,80.05999999999997,94,20,2.56,MU,2020-03-03 19:51:48
487,akdepe,42.06,59.38,29.461999999999954,74,0,3.1,TM,2020-03-03 19:51:48
488,siteki,-26.45,31.95,62.86999999999996,100,0,0.61,SZ,2020-03-03 19:51:49
489,jalu,29.03,21.55,61.05199999999998,68,33,8.13,LY,2020-03-03 19:51:49
490,khatanga,71.97,102.5,6.349999999999998,95,100,3.01,RU,2020-03-03 19:51:50
491,baksheyevo,55.71,39.88,34.411999999999956,97,100,0.3,RU,2020-03-03 19:51:50
492,verkhnevilyuysk,63.45,120.32,7.7720000000000375,89,100,3.47,RU,2020-03-03 19:51:51
493,tuatapere,-46.13,167.68,58.26199999999996,53,29,5.36,NZ,2020-03-03 19:51:51
494,richards bay,-28.78,32.04,74.858,75,0,6.85,ZA,2020-03-03 19:51:52
495,labutta,,,,,,,,
496,ouahigouya,13.58,-2.42,76.53200000000001,12,0,5.03,BF,2020-03-03 19:51:53
497,ayer itam,,,,,,,,
498,cururupu,-1.83,-44.87,74.31799999999998,98,100,0.67,BR,2020-03-03 19:51:53
499,kakching,24.48,93.98,57.469999999999956,67,40,0.46,IN,2020-03-03 19:51:54
500,dombarovskiy,50.76,59.54,13.891999999999996,64,97,2.61,RU,2020-03-03 19:51:54
501,mao,39.89,4.27,52.069999999999965,66,0,7.7,ES,2020-03-03 19:51:55
502,nemuro,43.32,145.57,32.26999999999996,78,75,5.1,JP,2020-03-03 19:51:55
503,kidal,18.44,1.41,71.07799999999997,8,0,4.53,ML,2020-03-03 19:51:56
504,grenada,37.19,-3.61,54.12200000000004,87,90,4.97,ES,2020-03-03 19:51:56
505,muisne,0.6,-80.03,75.84800000000003,91,100,2.47,EC,2020-03-03 19:51:57
506,esna,25.29,32.55,55.58000000000004,20,0,1.79,EG,2020-03-03 19:51:57
507,pontes e lacerda,-15.23,-59.34,71.38399999999999,78,2,0.9,BR,2020-03-03 19:51:58
508,cacule,-14.5,-42.22,70.71799999999999,86,96,0.71,BR,2020-03-03 19:51:58
509,teofilo otoni,-17.86,-41.51,69.33200000000002,96,100,0.52,BR,2020-03-03 19:48:57
510,orsha,54.52,30.41,38.3,89,82,4.87,BY,2020-03-03 19:51:59
511,kiunga,-6.12,141.29,93.48800000000006,53,83,1.14,PG,2020-03-03 19:52:00
512,kieta,-6.22,155.63,84.97400000000002,72,100,1.62,PG,2020-03-03 19:52:00
513,zagar,46.35,24.62,44.34800000000003,87,100,3.6,RO,2020-03-03 19:52:01
514,okhotsk,59.38,143.3,11.677999999999962,82,95,0.65,RU,2020-03-03 19:52:02
515,kruisfontein,-34,24.73,69.81799999999998,63,0,2.43,ZA,2020-03-03 19:52:03
516,naze,28.37,129.48,67.316,82,75,4.1,JP,2020-03-03 19:52:03
517,opuwo,-18.06,13.84,64.54399999999998,50,0,1.18,NA,2020-03-03 19:52:04
518,fare,-16.7,-151.02,83.26400000000004,75,67,4.05,PF,2020-03-03 19:52:04
519,coruripe,-10.13,-36.18,82.13000000000005,77,75,4.62,BR,2020-03-03 19:52:05
520,vao,-22.67,167.48,80.63599999999997,79,100,5.32,NC,2020-03-03 19:52:05
521,killybegs,54.63,-8.45,40.94600000000005,75,100,3.92,IE,2020-03-03 19:52:06
522,alyangula,-13.85,136.42,91.66999999999996,63,92,6.2,AU,2020-03-03 19:52:06
523,aljezur,37.32,-8.8,59.792,97,0,0.89,PT,2020-03-03 19:52:06
524,talavera,15.62,120.93,84.46999999999997,62,75,7.2,PH,2020-03-03 19:52:07
525,surin,14.88,103.49,89.02400000000002,52,82,2.6,TH,2020-03-03 19:50:36
526,longyan,25.11,117.02,60.16999999999996,91,100,0.58,CN,2020-03-03 19:52:08
527,tabas,33.6,56.92,46.66999999999996,62,11,3.1,IR,2020-03-03 19:52:08
528,sataua,,,,,,,,
529,kembe,4.62,21.89,72.96799999999999,65,1,1,CF,2020-03-03 19:52:09
530,monchegorsk,67.94,32.87,4.7300000000000395,92,0,0.1,RU,2020-03-03 19:52:10
531,sault sainte marie,46.52,-84.33,32.35999999999998,86,90,3.1,CA,2020-03-03 19:52:09
532,inegol,40.08,29.51,44.86999999999996,87,93,1.5,TR,2020-03-03 19:51:20
533,meulaboh,4.14,96.13,82.47200000000004,80,41,3.07,ID,2020-03-03 19:52:11
534,merritt,50.11,-120.79,43.06999999999996,81,90,10.3,CA,2020-03-03 19:52:11
535,marfino,55.7,37.38,35.94199999999999,100,90,2,RU,2020-03-03 19:52:12
536,zhigansk,66.77,123.37,-1.1559999999999775,91,100,11.25,RU,2020-03-03 19:52:12
537,mogadishu,2.04,45.34,80.86999999999996,69,40,5.1,SO,2020-03-03 19:52:13
538,srednekolymsk,67.45,153.68,9.733999999999991,71,0,1.49,RU,2020-03-03 19:52:13
539,agadir,30.42,-9.6,55.66999999999996,93,0,1.5,MA,2020-03-03 19:50:54
540,abha,18.22,42.51,57.469999999999956,71,0,6.2,SA,2020-03-03 19:52:14
541,linjiang,41.81,126.91,22.801999999999975,88,100,4.62,CN,2020-03-03 19:52:15
542,ippy,6.27,21.22,70.66400000000004,28,0,1.38,CF,2020-03-03 19:52:15
543,balkanabat,39.51,54.37,42.70999999999998,91,13,1.1,TM,2020-03-03 19:52:16
544,tanjong sepat,,,,,,,,
545,guilin,25.28,110.29,50.26999999999996,93,90,1,CN,2020-03-03 19:52:16
546,muzhi,65.37,64.67,12.46999999999996,76,0,9.61,RU,2020-03-03 19:49:24
547,fairbanks,64.84,-147.72,-9.670000000000009,76,75,1.28,US,2020-03-03 19:52:17
548,kaeo,-35.1,173.78,74.73200000000003,92,100,1.34,NZ,2020-03-03 19:52:18
549,lydenburg,-25.1,30.46,63.266000000000005,96,0,1.72,ZA,2020-03-03 19:52:18
550,san andres,12.58,-81.7,80.86999999999996,74,75,4.6,CO,2020-03-03 19:51:14
551,ararangua,-28.93,-49.49,64.92200000000004,94,100,1.65,BR,2020-03-03 19:52:19
552,maloshuyka,,,,,,,,
553,mayo,38.89,-76.51,54.12200000000004,87,75,4.6,US,2020-03-03 19:52:20
554,clyde,41.3,-82.98,40.19000000000002,80,20,4.6,US,2020-03-03 19:52:21
555,bathsheba,13.22,-59.52,79.06999999999996,74,75,9.3,BB,2020-03-03 19:52:21
556,odweyne,9.41,45.06,64.90399999999995,48,67,4.53,SO,2020-03-03 19:52:22
557,uvira,-3.41,29.15,52.50199999999998,85,100,0.32,CD,2020-03-03 19:52:22
558,comodoro rivadavia,-45.87,-67.5,59.26999999999996,87,100,5.65,AR,2020-03-03 19:51:24
559,karauzyak,,,,,,,,
560,yurimaguas,-5.9,-76.08,79.19600000000005,75,38,0.57,PE,2020-03-03 19:52:24
561,chahuites,16.28,-94.18,66.29000000000002,93,0,2.27,MX,2020-03-03 19:52:24
562,teya,60.38,92.63,14.503999999999952,92,100,2.78,RU,2020-03-03 19:52:24
563,tosagua,-0.78,-80.25,79.06999999999996,83,40,1,EC,2020-03-03 19:52:25
564,palmer,42.16,-72.33,47.461999999999954,93,90,4.6,US,2020-03-03 19:52:25
565,vamvakou,39.33,22.42,56.48000000000005,71,40,2.6,GR,2020-03-03 19:52:26
566,angoche,-16.23,39.91,71.41999999999996,96,17,2.95,MZ,2020-03-03 19:52:27
567,tabuk,17.42,121.44,81.76999999999995,62,2,3.01,PH,2020-03-03 19:52:27
568,mackenzie,55.3,-123.17,30.46999999999996,86,90,5.7,CA,2020-03-03 19:52:27
569,leh,34.17,77.58,1.3639999999999795,58,0,1.38,IN,2020-03-03 19:52:28
570,allangigan,,,,,,,,
571,santiago de chuco,-8.15,-78.18,48.72200000000004,93,94,1.25,PE,2020-03-03 19:52:29
572,neyshabur,36.21,58.8,37.508,88,100,2.93,IR,2020-03-03 19:52:29
573,pauini,-7.71,-66.98,72.842,97,62,0.76,BR,2020-03-03 19:52:30
574,louisbourg,,,,,,,,
575,gamboula,4.12,15.14,68.234,90,42,1.3,CF,2020-03-03 19:52:31
576,bayir,37.27,28.22,59.26999999999996,58,75,3.6,TR,2020-03-03 19:52:31
577,ginda,30.69,78.49,51.601999999999975,60,0,0.98,IN,2020-03-03 19:52:32
578,lerum,57.77,12.27,37.32799999999996,93,100,1.5,SE,2020-03-03 19:52:32
579,morondava,-20.28,44.28,73.79600000000005,86,0,1.11,MG,2020-03-03 19:52:33
580,kitob,39.08,66.83,50.48599999999997,52,88,0.97,UZ,2020-03-03 19:52:33
581,lithgow,-33.48,150.15,69.63800000000005,88,90,4.2,AU,2020-03-03 19:52:34
582,maniitsoq,65.42,-52.9,4.8560000000000265,59,0,1.43,GL,2020-03-03 19:52:34
583,boa vista,2.82,-60.67,82.66999999999996,58,88,4.1,BR,2020-03-03 19:50:57
584,amapa,1,-52,71.49199999999999,97,97,1.45,BR,2020-03-03 19:52:35
585,abu jubayhah,,,,,,,,
586,lethem,3.38,-59.8,81.31999999999996,52,0,5.5,GY,2020-03-03 19:52:36
587,stokmarknes,68.56,14.91,24.817999999999984,59,26,1.79,NO,2020-03-03 19:52:36
588,mudgal,16.02,76.43,77.54000000000002,36,97,3.58,IN,2020-03-03 19:52:37
589,navapur,,,,,,,,
590,mabaruma,8.2,-59.78,68.71999999999997,97,0,0.9,GY,2020-03-03 19:52:37
591,winnemucca,40.97,-117.74,41.432000000000016,60,1,2.1,US,2020-03-03 19:52:38
592,molina,-35.12,-71.28,68.26999999999995,60,0,1.5,CL,2020-03-03 19:52:38
593,kwinana,-32.25,115.77,88.592,19,100,2.6,AU,2020-03-03 19:52:39
594,muli,2.92,73.57,82.74199999999999,70,88,4.41,MV,2020-03-03 19:52:40
595,caravelas,-17.71,-39.25,81.91400000000004,81,100,4.77,BR,2020-03-03 19:52:40
596,elverum,60.88,11.56,28.166000000000007,90,100,2.64,NO,2020-03-03 19:52:41
597,cabedelo,-6.98,-34.83,80.86999999999996,88,75,1.5,BR,2020-03-03 19:52:41
598,marawi,8,124.29,83.26400000000004,77,73,3.58,PH,2020-03-03 19:52:42
599,ayan,56.45,138.17,10.003999999999952,90,100,1.77,RU,2020-03-03 19:52:42
600,chagda,,,,,,,,
601,makakilo city,21.35,-158.09,77.59399999999997,69,40,3.6,US,2020-03-03 19:51:29
602,tulun,54.56,100.58,24.74600000000005,93,96,1.36,RU,2020-03-03 19:52:44
603,florianopolis,-27.61,-48.5,67.94600000000005,100,91,1,BR,2020-03-03 19:52:44
604,ponorogo,-7.87,111.46,85.424,61,48,2.04,ID,2020-03-03 19:48:35
605,oktyabrskiy,54.48,53.47,19.49000000000002,87,100,2.53,RU,2020-03-03 19:52:45
606,barguzin,53.62,109.62,15.727999999999962,79,77,1.38,RU,2020-03-03 19:52:46
607,umm lajj,25.02,37.27,70.39399999999998,14,0,2.83,SA,2020-03-03 19:52:47
608,king city,36.21,-121.13,58.208000000000006,71,1,2.1,US,2020-03-03 19:48:10
609,sukhinichi,54.1,35.34,34.898000000000025,93,32,1.27,RU,2020-03-03 19:52:47
610,arman,59.7,150.17,16.285999999999966,92,100,2.61,RU,2020-03-03 19:52:48
611,port-gentil,-0.72,8.78,84.01999999999995,80,100,4.51,GA,2020-03-03 19:52:48
612,bargal,,,,,,,,
613,tidore,,,,,,,,
614,dasoguz,41.84,59.97,30.46999999999996,80,0,5.1,TM,2020-03-03 19:52:50
615,mikhaylovka,50.06,43.24,26.27599999999999,93,71,1.91,RU,2020-03-03 19:52:50
616,talara,-4.58,-81.27,77.50399999999996,87,9,6.74,PE,2020-03-03 19:52:51
617,hay river,60.82,-115.8,-3.7299999999999898,83,75,2.48,CA,2020-03-03 19:52:51
618,mareeba,-17,145.43,90.06799999999998,62,51,4.1,AU,2020-03-03 19:52:52
619,pacific grove,36.62,-121.92,56.569999999999965,58,0,2.74,US,2020-03-03 19:52:52
620,fengzhen,40.44,113.15,19.148000000000025,35,0,1.17,CN,2020-03-03 19:52:53
621,monrovia,6.3,-10.8,80.88800000000005,89,69,0.84,LR,2020-03-03 19:52:53
622,cherskiy,68.75,161.3,6.998000000000022,77,0,6.46,RU,2020-03-03 19:52:53
623,pavagada,14.1,77.27,78.38599999999997,46,70,4.47,IN,2020-03-03 19:52:54
624,seoul,37.57,126.98,40.60399999999995,48,75,4.6,KR,2020-03-03 19:48:45
625,houma,29.6,-90.72,71.816,94,90,3.1,US,2020-03-03 19:52:55
626,khani,41.96,42.96,43.06999999999996,51,0,3.1,GE,2020-03-03 19:52:55
627,bandarbeyla,9.49,50.81,77.84600000000006,64,100,3.75,SO,2020-03-03 19:52:56
628,dennery,13.9,-60.89,80.86999999999996,74,75,8.7,LC,2020-03-03 19:52:56
629,sechura,-5.56,-80.82,76.06400000000004,87,0,5.05,PE,2020-03-03 19:52:57
630,lexington,37.99,-84.48,44.653999999999954,56,1,2.6,US,2020-03-03 19:52:57
631,perni,41,24.64,56.82200000000004,93,75,2.72,GR,2020-03-03 19:52:58
